{
  "locations": [
    {
      "name": "Studland Site Gate",
      "lat": "50.6408",
      "lng": "-1.943736",
      "googlePlaceId": "",
      "wazeVenueId": "",
      "canDriveTo": false,
      "type": "home"
    },
    {
      "name": "Manor Farm",
      "lat": "50.64107873",
      "lng": "-1.94918275",
      "googlePlaceId": "",
      "wazeVenueId": "",
      "canDriveTo": true,
      "type": "home"
    },
    {
      "name": "Studland Stores",
      "lat": "50.64208368986676",
      "lng": "-1.952374294145884",
      "googlePlaceId": "ChIJ32vfEosJc0gRy-cKGKbHWLc",
      "wazeVenueId": "",
      "canDriveTo": true,
      "type": "shop"
    },
    {
      "name": "Wareham Station",
      "lat": "50.692639678336214",
      "lng": "-2.1154711859205055",
      "googlePlaceId": "ChIJ81_bFKOpc0gRtLfq2Ndrn9Y",
      "wazeVenueId": "",
      "canDriveTo": true,
      "type": "station"
    },
    {
      "name": "South Beach",
      "lat": "50.642286",
      "lng": "-1.943616",
      "googlePlaceId": "",
      "wazeVenueId": "",
      "canDriveTo": false,
      "type": "beach"
    },
    {
      "name": "Middle Beach Car Park",
      "lat": "50.64511211854901",
      "lng": "-1.9503943829666963",
      "googlePlaceId": "ChIJjWSejVMJc0gRa9LMKaQ9vA8",
      "wazeVenueId": "234619386.-1948445751.12067326",
      "canDriveTo": true,
      "type": "beach"
    },
    {
      "name": "Knoll Beach Car Park",
      "lat": "50.651852",
      "lng": "-1.954822",
      "googlePlaceId": "ChIJh10gcfcJc0gRVNh5zA08LXM",
      "wazeVenueId": "234619387.-1948445751.12339657",
      "canDriveTo": true,
      "type": "beach"
    },
    {
      "name": "Swanage Main Beach Car Park",
      "lat": "50.61134179381731",
      "lng": "-1.963286803531554",
      "googlePlaceId": "ChIJgSPP3HEJc0gRgbJwkZc93Gk",
      "wazeVenueId": "234619386.-1948511291.1631251",
      "canDriveTo": true,
      "type": "beach"
    },
    {
      "name": "Shell Bay",
      "lat": "50.67583325476079",
      "lng": "-1.9466046690419339",
      "googlePlaceId": "ChIJGetBLLKgc0gRejh8H0q5Avk",
      "wazeVenueId": "234553850.-1949166648.2964934",
      "canDriveTo": true,
      "type": "beach"
    },
    {
      "name": "Old Harry Rocks",
      "lat": "50.6415056",
      "lng": "-1.9244519",
      "googlePlaceId": "ChIJaUlbS-ALc0gRluPEla2RmQo",
      "wazeVenueId": "",
      "canDriveTo": false,
      "type": "destination"
    },
    {
      "name": "Agglestone Rock",
      "lat": "50.645236570520204",
      "lng": "-1.967904368062389",
      "googlePlaceId": "ChIJE8tdhusJc0gRRXqLBMwpMsE",
      "wazeVenueId": "",
      "canDriveTo": false,
      "type": "destination"
    },
    {
      "name": "Swanage Clock Tower",
      "lat": "50.61199636",
      "lng": "-1.95793748",
      "googlePlaceId": "",
      "wazeVenueId": "",
      "canDriveTo": true,
      "type": "destination"
    },
    {
      "name": "Corfe Castle Car Park",
      "lat": "50.6421304",
      "lng": "-2.0586631",
      "googlePlaceId": "ChIJfQerlVcHc0gR-XqJhbjaxaE",
      "wazeVenueId": "234553850.-1949166648.2964934",
      "canDriveTo": true,
      "type": "destination"
    }
  ]
}
